{"set": [{"id": 16430, "title": "Available Buildings", "format": "checkbox", "icon": "/core/elements/arrows/rect-blue.gif", "pin": "/core/elements/arrows/rect-blue.gif", "typeids": "16375,16420,16427,16435,16444,16453,16616,16620,17600,17610,17620,17623,17625,17630,17640,17650,17660,18330"}],"type": [{"id": 16375, "title": "Data Center"},{"id": 16420, "title": "Office"},{"id": 16427, "title": "Spec"},{"id": 16435, "title": "Warehouse / Distribution"},{"id": 16444, "title": "Textiles & Apparel"},{"id": 16453, "title": "Call Center"},{"id": 16616, "title": "Food"},{"id": 16620, "title": "Retail"},{"id": 17600, "title": "Manufacturing / Distribution"},{"id": 17610, "title": "Electronics"},{"id": 17620, "title": "Lumber & Wood Products"},{"id": 17623, "title": "Furniture & Fixtures"},{"id": 17625, "title": "Paper"},{"id": 17630, "title": "Machinery"},{"id": 17640, "title": "Metals"},{"id": 17650, "title": "Plastics & Rubber"},{"id": 17660, "title": "Transportation Equipment"},{"id": 18330, "title": "Research & Development"}],
"results":[
{"id": "330608", "title": "2225 Ronald Avenue", "description": "", "thumbnail": "/files/georgiafacts/2011/ronaldavenue-thumb.jpg", "addressLine1": "2225 Ronald Avenue", "addressLine2": "", "city": "Macon", "county": "", "state": "GA", "zip": "31217", "kmz": "", "location": "Undefined", "locationid": "0", "lat": "32.8159360", "lon": "-83.5640820", "url": "/info/330608"},
{"id": "330610", "title": "P B E Building", "description": "", "addressLine1": "600 5th Ave", "addressLine2": "", "city": "Dalton", "county": "", "state": "GA", "zip": "Ga", "kmz": "", "location": "P B E Building", "locationid": "330610", "lat": "34.7656140", "lon": "-84.9545970", "url": "/info/330610"},
{"id": "330614", "title": "2905 Pacific Drive, Norcross, GA", "description": "", "addressLine1": "2905 Pacific Drive", "addressLine2": "", "city": "Norcross", "county": "", "state": "GA", "zip": "30071", "kmz": "", "location": "2905 Pacific Drive, Norcross, GA", "locationid": "330614", "lat": "33.9406130", "lon": "-84.2300939", "url": "/info/330614"},
{"id": "330615", "title": "12 Nordson Drive, Dawsonville, GA 30534", "description": "", "thumbnail": "/files/georgiafacts/2011/mainpropertyphotoexterior005-thumb.jpg", "addressLine1": "12 Nordson Drive", "addressLine2": "", "city": "Dawsonville", "county": "", "state": "GA", "zip": "30534", "kmz": "", "location": "12 Nordson Drive, Dawsonville, GA 30534", "locationid": "330615", "lat": "34.3615390", "lon": "-84.0463080", "url": "/info/330615"},
{"id": "330617", "title": "Athens Call Center", "description": "", "addressLine1": "2026 South Milledge Avenue", "addressLine2": "", "city": "Athens", "county": "", "state": "GA", "zip": "30605", "kmz": "", "location": "Athens Call Center", "locationid": "330617", "lat": "33.9264127", "lon": "-83.3787923", "url": "/info/330617"},
{"id": "330621", "title": "10125 Hwy 142", "description": "", "thumbnail": "/files/georgiafacts/2011/10270_web-thumb.jpg", "addressLine1": "10125 Hwy 142", "addressLine2": "", "city": "Covington", "county": "", "state": "GA", "zip": "30014", "kmz": "", "location": "10125 Hwy 142", "locationid": "330621", "lat": "33.6043513", "lon": "-83.8309926", "url": "/info/330621"},
{"id": "330626", "title": "10101 Hazelbrand Road", "description": "", "addressLine1": "10101 hazelbrand", "addressLine2": "", "city": "Covington", "county": "", "state": "GA", "zip": "30014", "kmz": "", "location": "10101 Hazelbrand Road", "locationid": "330626", "lat": "33.6099860", "lon": "-83.8353400", "url": "/info/330626"},
{"id": "330637", "title": "80 Enterprise Drive", "description": "", "thumbnail": "/files/georgiafacts/2011/8808-thumb.jpg", "addressLine1": "80 Enterprise Drive", "addressLine2": "", "city": "Pendergrass", "county": "", "state": "GA", "zip": "30567", "kmz": "", "location": "80 Enterprise Drive", "locationid": "330637", "lat": "", "lon": "", "url": "/info/330637"},
{"id": "330638", "title": "1672 Oakbrook Drive", "description": "", "thumbnail": "/files/georgiafacts/2011/5821-thumb.jpg", "addressLine1": "1672 Oakbrook Drive", "addressLine2": "", "city": "Gainesville", "county": "", "state": "GA", "zip": "30507", "kmz": "", "location": "1672 Oakbrook Drive", "locationid": "330638", "lat": "34.2485687", "lon": "-83.7990270", "url": "/info/330638"},
{"id": "330643", "title": "Brickyard Rd", "description": "", "addressLine1": "301 brickyard Road", "addressLine2": "", "city": "Dalton", "county": "", "state": "GA", "zip": "30721", "kmz": "", "location": "Brickyard Rd", "locationid": "330643", "lat": "34.7269130", "lon": "-84.9677290", "url": "/info/330643"},
{"id": "330645", "title": "Connector 3", "description": "", "addressLine1": "150 Connector 3", "addressLine2": "", "city": "Dalton", "county": "", "state": "GA", "zip": "30720", "kmz": "", "location": "Undefined", "locationid": "0", "lat": "34.6903780", "lon": "-84.9956670", "url": "/info/330645"},
{"id": "330647", "title": "Don Owens Building 1", "description": "", "thumbnail": "/files/georgiafacts/2011/1155marinedrpix-thumb.jpg", "addressLine1": "1155 Marine Drive", "addressLine2": "", "city": "Calhoun", "county": "", "state": "GA", "zip": "30701", "kmz": "", "location": "Don Owens Building 1", "locationid": "330647", "lat": "34.4456124", "lon": "-84.9234573", "url": "/info/330647"},
{"id": "330648", "title": "610 Ronald Reagan Dr, Evans, GA", "description": "", "thumbnail": "/files/georgiafacts/2011/[photo1254896]frontview-thumb.jpg", "addressLine1": "610 Ronald Reagan Dr.", "addressLine2": "", "city": "Evans", "county": "", "state": "GA", "zip": "30809", "kmz": "", "location": "610 Ronald Reagan Dr, Evans, GA", "locationid": "330648", "lat": "33.5433580", "lon": "-82.1358980", "url": "/info/330648"},
{"id": "330651", "title": "26 River Drive", "description": "", "thumbnail": "/files/georgiafacts/2011/26riverdrphoto-thumb.jpg", "addressLine1": "26 River Drive", "addressLine2": "", "city": "Cartersville", "county": "", "state": "GA", "zip": "30120", "kmz": "", "location": "26 River Drive", "locationid": "330651", "lat": "34.1461200", "lon": "-84.7965600", "url": "/info/330651"},
{"id": "330654", "title": "2320 Webb Girth Road", "description": "", "thumbnail": "/files/georgiafacts/2011/pic2_edited-thumb.jpg", "addressLine1": "2320 Webb Girth Road", "addressLine2": "", "city": "Gainesville", "county": "", "state": "GA", "zip": "30507", "kmz": "", "location": "2320 Webb Girth Road", "locationid": "330654", "lat": "34.2229900", "lon": "-83.8051190", "url": "/info/330654"},
{"id": "330658", "title": "1900 willowdale road", "description": "", "thumbnail": "/files/georgiafacts/2011/img_0033-thumb.jpg", "addressLine1": "1900 willowdale road", "addressLine2": "", "city": "Dalton", "county": "", "state": "GA", "zip": "Ga", "kmz": "", "location": "1900 willowdale road", "locationid": "330658", "lat": "34.8007500", "lon": "-85.0030150", "url": "/info/330658"},
{"id": "330661", "title": "South East Finishing Building", "description": "", "thumbnail": "/files/georgiafacts/2011/rkk2hqf6m9t44tan9xcsprbba4i-thumb.jpg", "addressLine1": "12 Elk Street", "addressLine2": "", "city": "Dalton", "county": "", "state": "GA", "zip": "30721", "kmz": "", "location": "Undefined", "locationid": "0", "lat": "", "lon": "", "url": "/info/330661"},
{"id": "330662", "title": "South East Finishing Building", "description": "", "thumbnail": "/files/georgiafacts/2011/rkk2hqf6m9t44tan9xcsprbba4i-1025-thumb.jpg", "addressLine1": "114 E Walnut Ave", "addressLine2": "", "city": "Dalton", "county": "", "state": "GA", "zip": "30721", "kmz": "", "location": "Undefined", "locationid": "0", "lat": "34.7615351", "lon": "-84.9659634", "url": "/info/330662"},
{"id": "330664", "title": "Oakridge Business Complex", "description": "", "thumbnail": "/files/georgiafacts/2011/dev.authoritybuildings012-thumb.jpg", "addressLine1": "129 Oakridge Church Road", "addressLine2": "", "city": "Tifton", "county": "", "state": "GA", "zip": "31794", "kmz": "", "location": "Oakridge Business Complex", "locationid": "330664", "lat": "31.4039239", "lon": "-83.5178840", "url": "/info/330664"},
{"id": "330666", "title": "Oakridge Business Complex", "description": "", "thumbnail": "/files/georgiafacts/2011/dev.authoritybuildings012-1248-thumb.jpg", "addressLine1": "129 Oakridge Church Road", "addressLine2": "", "city": "Tifton", "county": "", "state": "GA", "zip": "31794", "kmz": "", "location": "Oakridge Business Complex", "locationid": "330666", "lat": "31.4039239", "lon": "-83.5178840", "url": "/info/330666"},
{"id": "330668", "title": "Oakridge Business Complex", "description": "", "thumbnail": "/files/georgiafacts/2011/dev.authoritybuildings011-thumb.jpg", "addressLine1": "129 Oakridge Church Road", "addressLine2": "", "city": "Tifton", "county": "", "state": "GA", "zip": "31794", "kmz": "", "location": "Oakridge Business Complex", "locationid": "330668", "lat": "31.4039239", "lon": "-83.5178840", "url": "/info/330668"},
{"id": "330669", "title": "Oakridge Business Complex", "description": "", "thumbnail": "/files/georgiafacts/2011/dev.authoritybuildings011-8115-thumb.jpg", "addressLine1": "129 Oakridge Church Road", "addressLine2": "", "city": "Tifton", "county": "", "state": "GA", "zip": "31794", "kmz": "", "location": "Oakridge Business Complex", "locationid": "330669", "lat": "31.4039239", "lon": "-83.5178840", "url": "/info/330669"},
{"id": "330670", "title": "Oakridge Business Complex", "description": "", "thumbnail": "/files/georgiafacts/2011/dev.authoritybuildings011-2005-thumb.jpg", "addressLine1": "129 Oakridge Church Road", "addressLine2": "", "city": "Tifton", "county": "", "state": "GA", "zip": "31794", "kmz": "", "location": "Oakridge Business Complex", "locationid": "330670", "lat": "31.4039239", "lon": "-83.5178840", "url": "/info/330670"},
{"id": "330674", "title": "US Hwy 41 S Business Complex", "description": "", "thumbnail": "/files/georgiafacts/2011/dev.authoritybuildings012-1783-thumb.jpg", "addressLine1": "3524 US Hwy 41 South", "addressLine2": "", "city": "Tifton", "county": "", "state": "GA", "zip": "31794", "kmz": "", "location": "Undefined", "locationid": "0", "lat": "31.3994350", "lon": "-83.4974210", "url": "/info/330674"},
{"id": "330675", "title": "US Hwy 41 S Business Complex", "description": "", "thumbnail": "/files/georgiafacts/2011/dev.authoritybuildings011-1965-thumb.jpg", "addressLine1": "3524 US Hwy 41 South", "addressLine2": "", "city": "Tifton", "county": "", "state": "GA", "zip": "31794", "kmz": "", "location": "US Hwy 41 S Business Complex", "locationid": "330675", "lat": "31.3994350", "lon": "-83.4974210", "url": "/info/330675"},
{"id": "330679", "title": "US Hwy 41 S Business Complex", "description": "", "thumbnail": "/files/georgiafacts/2011/dev.authoritybuildings011-6805-thumb.jpg", "addressLine1": "3524 US Hwy 41 South", "addressLine2": "", "city": "Tifton", "county": "", "state": "GA", "zip": "31794", "kmz": "", "location": "Undefined", "locationid": "0", "lat": "31.3994350", "lon": "-83.4974210", "url": "/info/330679"},
{"id": "330681", "title": "Georgia Vegetable Company, Inc.", "description": "", "thumbnail": "/files/georgiafacts/2012/dev.authoritybuildings015-thumb.jpg", "addressLine1": "3090 Hwy 41 South", "addressLine2": "", "city": "Tifton", "county": "", "state": "GA", "zip": "31794", "kmz": "", "location": "Georgia Vegetable Company, Inc.", "locationid": "330681", "lat": "31.4272340", "lon": "-83.4972580", "url": "/info/330681"},
{"id": "330683", "title": "Tifton 56", "description": "", "thumbnail": "/files/georgiafacts/2012/dev.authoritybuildings007-thumb.jpg", "addressLine1": "1104 Armour Road", "addressLine2": "", "city": "Tifton", "county": "", "state": "GA", "zip": "31794", "kmz": "", "location": "Tifton 56", "locationid": "330683", "lat": "31.4519130", "lon": "-83.4910070", "url": "/info/330683"},
{"id": "330686", "title": "Tifton 5", "description": "", "thumbnail": "/files/georgiafacts/2012/dev.authoritybuildings003-thumb.jpg", "addressLine1": "3325 Hwy 82 W", "addressLine2": "", "city": "Tifton", "county": "", "state": "GA", "zip": "31794", "kmz": "", "location": "Tifton 5", "locationid": "330686", "lat": "", "lon": "", "url": "/info/330686"},
{"id": "330687", "title": "Tifton 15", "description": "", "thumbnail": "/files/georgiafacts/2012/dev.authoritybuildings005-thumb.jpg", "addressLine1": "2773 Marshall Drive", "addressLine2": "", "city": "Tifton", "county": "", "state": "GA", "zip": "31794", "kmz": "", "location": "Tifton 15", "locationid": "330687", "lat": "31.4404560", "lon": "-83.5492280", "url": "/info/330687"},
{"id": "330688", "title": "Tifton 22", "description": "", "thumbnail": "/files/georgiafacts/2011/dev.authoritybuildings002-thumb.jpg", "addressLine1": "1102 S Central", "addressLine2": "", "city": "Tifton", "county": "", "state": "GA", "zip": "31794", "kmz": "", "location": "Tifton 22", "locationid": "330688", "lat": "31.4475471", "lon": "-83.5138259", "url": "/info/330688"},
{"id": "330690", "title": "Tifton 25L", "description": "", "thumbnail": "/files/georgiafacts/2011/dev.authoritybuildings004-thumb.jpg", "addressLine1": "3394 Hwy 41 S", "addressLine2": "", "city": "Tifton", "county": "", "state": "GA", "zip": "31794", "kmz": "", "location": "Tifton 25L", "locationid": "330690", "lat": "", "lon": "", "url": "/info/330690"},
{"id": "330691", "title": "Tifton 40", "description": "", "thumbnail": "/files/georgiafacts/2011/dev.authoritybuildings010-thumb.jpg", "addressLine1": "3416 Hwy 41 S", "addressLine2": "", "city": "Tifton", "county": "", "state": "GA", "zip": "31794", "kmz": "", "location": "Tifton 40", "locationid": "330691", "lat": "31.4073880", "lon": "-83.4979790", "url": "/info/330691"},
{"id": "330692", "title": "Tifton 50L", "description": "", "thumbnail": "/files/georgiafacts/2012/dev.authoritybuildings016-thumb.jpg", "addressLine1": "US Hwy 41 S", "addressLine2": "", "city": "Tifton", "county": "", "state": "GA", "zip": "31794", "kmz": "", "location": "Tifton 50L", "locationid": "330692", "lat": "", "lon": "", "url": "/info/330692"},
{"id": "330696", "title": "Tifton 53L", "description": "", "thumbnail": "/files/georgiafacts/2011/dev.authoritybuildings019-thumb.jpg", "addressLine1": "Union Road", "addressLine2": "", "city": "Tifton", "county": "", "state": "GA", "zip": "31794", "kmz": "", "location": "Undefined", "locationid": "0", "lat": "", "lon": "", "url": "/info/330696"},
{"id": "330698", "title": "12245 Independence Drive", "description": "", "addressLine1": "12245 Independence Drive", "addressLine2": "", "city": "Covington", "county": "", "state": "GA", "zip": "30014", "kmz": "", "location": "Undefined", "locationid": "0", "lat": "33.6146772", "lon": "-83.8266730", "url": "/info/330698"},
{"id": "330700", "title": "Tifton 22R", "description": "", "thumbnail": "/files/georgiafacts/2011/dev.authoritybuildings013-thumb.jpg", "addressLine1": "498 Oak Ridge Road", "addressLine2": "", "city": "Tifton", "county": "", "state": "GA", "zip": "31794", "kmz": "", "location": "Tifton 22R", "locationid": "330700", "lat": "31.4009970", "lon": "-83.4794710", "url": "/info/330700"},
{"id": "330701", "title": "Tifton 10", "description": "", "thumbnail": "/files/georgiafacts/2012/dev.authoritybuildings004-thumb.jpg", "addressLine1": "3690 Hwy 82", "addressLine2": "", "city": "Tifton", "county": "", "state": "GA", "zip": "31794", "kmz": "", "location": "Undefined", "locationid": "0", "lat": "", "lon": "", "url": "/info/330701"},
{"id": "330704", "title": "2050 Will Ross Court", "description": "", "thumbnail": "/files/georgiafacts/2011/image-thumb.jpg", "addressLine1": "2050 Will Ross Court, Chamblee, GA", "addressLine2": "", "city": "Chamblee", "county": "", "state": "GA", "zip": "GA", "kmz": "", "location": "Undefined", "locationid": "0", "lat": "33.8949990", "lon": "-84.3082180", "url": "/info/330704"},
{"id": "330710", "title": "510 S. Tennessee Street", "description": "", "thumbnail": "/files/georgiafacts/2011/510stennesseestphoto-thumb.jpg", "addressLine1": "510 S. Tennessee Street", "addressLine2": "", "city": "Cartersville", "county": "", "state": "GA", "zip": "30120", "kmz": "", "location": "510 S. Tennessee Street", "locationid": "330710", "lat": "34.1566600", "lon": "-84.7891600", "url": "/info/330710"},
{"id": "330711", "title": "Olympic Industrial Center", "description": "", "addressLine1": "2971 Olympic Industrial Drive", "addressLine2": "", "city": "Smyrna", "county": "", "state": "GA", "zip": "GA", "kmz": "", "location": "Undefined", "locationid": "0", "lat": "33.8323409", "lon": "-84.4685849", "url": "/info/330711"},
{"id": "330714", "title": "Five Oaks", "description": "", "thumbnail": "/files/georgiafacts/2011/fiveoaks3-thumb.jpg", "addressLine1": "1600 Oakbrook Drive", "addressLine2": "", "city": "Norcross", "county": "", "state": "GA", "zip": "GA", "kmz": "", "location": "Five Oaks", "locationid": "330714", "lat": "33.9133360", "lon": "-84.1942490", "url": "/info/330714"},
{"id": "330715", "title": "Oakbrook Place", "description": "", "thumbnail": "/files/georgiafacts/2011/obp5680-2-thumb.jpg", "addressLine1": "5680 Oakbrook Parkway", "addressLine2": "", "city": "Norcross", "county": "", "state": "GA", "zip": "GA", "kmz": "", "location": "Oakbrook Place", "locationid": "330715", "lat": "33.9169510", "lon": "-84.1920170", "url": "/info/330715"},
{"id": "330717", "title": "Bay Colony", "description": "", "thumbnail": "/files/georgiafacts/2011/baycolony1-thumb.jpg", "addressLine1": "6611 Bay Circle", "addressLine2": "", "city": "Norcross", "county": "", "state": "GA", "zip": "30071", "kmz": "", "location": "Bay Colony", "locationid": "330717", "lat": "33.9362963", "lon": "-84.2482354", "url": "/info/330717"},
{"id": "330718", "title": "Medlock Oaks Business Park", "description": "", "thumbnail": "/files/georgiafacts/2011/medlockoaks6-thumb.jpg", "addressLine1": "3100 Medlock Oaks", "addressLine2": "", "city": "Norcross", "county": "", "state": "GA", "zip": "GA", "kmz": "", "location": "Undefined", "locationid": "0", "lat": "", "lon": "", "url": "/info/330718"},
{"id": "330719", "title": "Colony Center", "description": "", "thumbnail": "/files/georgiafacts/2011/cc2975-2-thumb.jpg", "addressLine1": "2985 Gateway Drive", "addressLine2": "", "city": "Norcross", "county": "", "state": "GA", "zip": "GA", "kmz": "", "location": "Undefined", "locationid": "0", "lat": "33.9304092", "lon": "-84.2556070", "url": "/info/330719"},
{"id": "330723", "title": "201 King Mill Court", "description": "", "thumbnail": "/files/georgiafacts/2011/201kingmillct.lookingnorth-thumb.jpg", "addressLine1": "201 King Mill Court", "addressLine2": "", "city": "McDonough", "county": "", "state": "GA", "zip": "30253", "kmz": "", "location": "201 King Mill Court", "locationid": "330723", "lat": "33.3992470", "lon": "-84.1468500", "url": "/info/330723"},
{"id": "330728", "title": "Old Coca-Cola Bottling Plant", "description": "", "thumbnail": "/files/georgiafacts/2011/picture2-thumb.jpg", "addressLine1": "1000 South Thornton Avenue", "addressLine2": "", "city": "Dalton", "county": "", "state": "GA", "zip": "GA", "kmz": "", "location": "Undefined", "locationid": "0", "lat": "34.7577290", "lon": "-84.9707510", "url": "/info/330728"},
{"id": "330730", "title": "1214 East Morris Street", "description": "", "addressLine1": "1214 East Morris Street dalton ga 30721", "addressLine2": "", "city": "Dalton", "county": "", "state": "GA", "zip": "30721", "kmz": "", "location": "Undefined", "locationid": "0", "lat": "34.7686246", "lon": "-84.9540373", "url": "/info/330730"},
{"id": "330734", "title": "VNS Fleming", "description": "", "thumbnail": "/files/georgiafacts/2012/r.h.aerial0085-thumb.jpg", "addressLine1": "456 Pate Rogers Road", "addressLine2": "", "city": "Fleming", "county": "", "state": "GA", "zip": "31309", "kmz": "", "location": "Undefined", "locationid": "0", "lat": "31.8669820", "lon": "-81.4383141", "url": "/info/330734"},
{"id": "330735", "title": "Flint Logistics LLC", "description": "", "thumbnail": "/files/georgiafacts/2012/pic-thumb.jpg", "addressLine1": "170 Forstman Road", "addressLine2": "", "city": "Louisville", "county": "", "state": "GA", "zip": "", "kmz": "", "location": "Flint Logistics LLC", "locationid": "330735", "lat": "", "lon": "", "url": "/info/330735"},
{"id": "330740", "title": "Cintas #1", "description": "", "addressLine1": "26875-A Highway 80 West", "addressLine2": "", "city": "Portal", "county": "", "state": "GA", "zip": "30450", "kmz": "", "location": "Cintas #1", "locationid": "330740", "lat": "", "lon": "", "url": "/info/330740"},
{"id": "330743", "title": "Cintas #2", "description": "", "addressLine1": "26875-B Highway 80 West", "addressLine2": "", "city": "Portal", "county": "", "state": "GA", "zip": "30450", "kmz": "", "location": "Undefined", "locationid": "0", "lat": "", "lon": "", "url": "/info/330743"},
{"id": "330745", "title": "Hughes Street Warehouse", "description": "", "thumbnail": "/files/georgiafacts/2012/hughesstwarehouse-thumb.jpg", "addressLine1": "1000 Hughes Street", "addressLine2": "", "city": "Dublin", "county": "", "state": "GA", "zip": "31021", "kmz": "", "location": "Undefined", "locationid": "0", "lat": "", "lon": "", "url": "/info/330745"},
{"id": "330749", "title": "BARIP Speculative Building", "description": "", "addressLine1": "256 Thomas Farm Road", "addressLine2": "", "city": "Blairsville", "county": "", "state": "GA", "zip": "30512", "kmz": "", "location": "BARIP Speculative Building", "locationid": "330749", "lat": "", "lon": "", "url": "/info/330749"},
{"id": "330760", "title": "955 Interstate Ridge, Gainesville, GA", "description": "", "thumbnail": "/files/georgiafacts/2012/955interstateridge-thumb.jpg", "addressLine1": "955 Interstate Ridge", "addressLine2": "", "city": "Gainesville", "county": "", "state": "GA", "zip": "30501", "kmz": "", "location": "955 Interstate Ridge, Gainesville, GA", "locationid": "330760", "lat": "", "lon": "", "url": "/info/330760"},
{"id": "330773", "title": "NuCon Steel", "description": "", "thumbnail": "/files/georgiafacts/2012/127internationalpkwy-thumb.jpg", "addressLine1": "127 International Parkway", "addressLine2": "", "city": "Dallas", "county": "", "state": "GA", "zip": "30157", "kmz": "", "location": "NuCon Steel", "locationid": "330773", "lat": "33.9005880", "lon": "-84.7853130", "url": "/info/330773"},
{"id": "330784", "title": "910 Industrial Boulevard North", "description": "", "thumbnail": "/files/georgiafacts/2012/910industrialblvdnorth-thumb.jpg", "addressLine1": "910 Industrial Boulevard North", "addressLine2": "", "city": "Dallas", "county": "", "state": "GA", "zip": "30132", "kmz": "", "location": "Undefined", "locationid": "0", "lat": "33.9482450", "lon": "-84.8200790", "url": "/info/330784"},
{"id": "330785", "title": "962 Industrial Boulevard North", "description": "", "thumbnail": "/files/georgiafacts/2012/962industiralboulevardnorth-thumb.jpg", "addressLine1": "962 Industrial Boulevard North", "addressLine2": "", "city": "Dallas", "county": "", "state": "GA", "zip": "30132", "kmz": "", "location": "Undefined", "locationid": "0", "lat": "33.9485200", "lon": "-84.8191110", "url": "/info/330785"},
{"id": "330786", "title": "398 West Memorial Drive", "description": "", "thumbnail": "/files/georgiafacts/2012/site19-thumb.jpg", "addressLine1": "398 West Memorial Drive", "addressLine2": "", "city": "Dallas", "county": "", "state": "GA", "zip": "30132", "kmz": "", "location": "398 West Memorial Drive", "locationid": "330786", "lat": "33.9227110", "lon": "-84.8476600", "url": "/info/330786"},
{"id": "330788", "title": "38 Southern Court", "description": "", "thumbnail": "/files/georgiafacts/2012/38southerncourt-thumb.png", "addressLine1": "38 Southern Court", "addressLine2": "", "city": "Hiram", "county": "", "state": "GA", "zip": "30141", "kmz": "", "location": "Undefined", "locationid": "0", "lat": "33.8757329", "lon": "-84.7312710", "url": "/info/330788"},
{"id": "330789", "title": "2300 Dalton Industrial Park", "description": "", "thumbnail": "/files/georgiafacts/2012/serveattachment-thumb.jpg", "addressLine1": "2300 Dalton Industrial Park", "addressLine2": "", "city": "Dalton", "county": "", "state": "GA", "zip": "30720", "kmz": "", "location": "Undefined", "locationid": "0", "lat": "", "lon": "", "url": "/info/330789"},
{"id": "330791", "title": "62A Gilreath Road", "description": "", "thumbnail": "/files/georgiafacts/2012/8000sf62agilreathrd1-23-12(o)-thumb.jpg", "addressLine1": "62A Gilreath Road", "addressLine2": "", "city": "Cartersville", "county": "", "state": "GA", "zip": "30121", "kmz": "", "location": "Undefined", "locationid": "0", "lat": "34.2227200", "lon": "-84.8165005", "url": "/info/330791"},
{"id": "330793", "title": "4194 Northeast Expressway", "description": "", "thumbnail": "/files/georgiafacts/2012/4194_northeast_expressway_aerial_postcard-thumb.jpg", "addressLine1": "4194 Northeast Expressway", "addressLine2": "", "city": "Doraville", "county": "", "state": "GA", "zip": "GA", "kmz": "", "location": "Undefined", "locationid": "0", "lat": "33.8950790", "lon": "-84.2569830", "url": "/info/330793"},
{"id": "330799", "title": "11450 Technology Circle", "description": "", "addressLine1": "11450 Technology Circle", "addressLine2": "", "city": "Johns Creek", "county": "", "state": "GA", "zip": "30097", "kmz": "", "location": "11450 Technology Circle", "locationid": "330799", "lat": "34.0585440", "lon": "-84.1544150", "url": "/info/330799"},
{"id": "330805", "title": "5801 Goshen Springs Rd.", "description": "", "thumbnail": "/files/georgiafacts/2012/executive_horizontal-5436-thumb.jpg", "addressLine1": "5801 Goshen Springs Rd.", "addressLine2": "Suite A", "city": "Norcross", "county": "", "state": "GA", "zip": "30071", "kmz": "", "location": "5801 Goshen Springs Rd.", "locationid": "330805", "lat": "33.9182710", "lon": "-84.2007870", "url": "/info/330805"},
{"id": "330806", "title": "Gainesville Business Park Expandable Speculative Building", "description": "", "thumbnail": "/files/georgiafacts/2012/pattillospecbldggbp-thumb.jpg", "addressLine1": "1845 New Harvest Road", "addressLine2": "", "city": "Gainesville", "county": "", "state": "GA", "zip": "30507", "kmz": "", "location": "Gainesville Business Park Expandable Speculative Building", "locationid": "330806", "lat": "", "lon": "", "url": "/info/330806"},
{"id": "330807", "title": "Bowman Warehouse and Distribution Building", "description": "", "thumbnail": "/files/georgiafacts/2012/feedstore1-thumb.jpg", "addressLine1": "22 Segars Street Bowman, GA   30624", "addressLine2": "Georgia Highway 17", "city": "Bowman", "county": "", "state": "GA", "zip": "30624", "kmz": "", "location": "Bowman Warehouse and Distribution Building", "locationid": "330807", "lat": "34.2036273", "lon": "-83.0300414", "url": "/info/330807"},
{"id": "330810", "title": "Corporate Lakes", "description": "", "addressLine1": "1300 Lakes Parkway", "addressLine2": "Suite 100", "city": "Lawrenceville", "county": "", "state": "GA", "zip": "30043", "kmz": "", "location": "Undefined", "locationid": "0", "lat": "33.9609530", "lon": "-84.0392930", "url": "/info/330810"},
{"id": "330812", "title": "Browning Manufacturing Bldg", "description": "", "addressLine1": "365 Industrial Drive, Eton, GA", "addressLine2": "", "city": "Eton", "county": "", "state": "GA", "zip": "30705", "kmz": "", "location": "Undefined", "locationid": "0", "lat": "34.8321274", "lon": "-84.7563916", "url": "/info/330812"},
{"id": "330820", "title": "1900 Rockdale Industrial Boulevard", "description": "", "addressLine1": "1900 Rockdale Industrial Boulevard", "addressLine2": "", "city": "Conyers", "county": "", "state": "GA", "zip": "GA", "kmz": "", "location": "Undefined", "locationid": "0", "lat": "33.6756030", "lon": "-84.0496810", "url": "/info/330820"},
{"id": "330604", "title": "33 Smiley Ingram Road", "description": "", "thumbnail": "/files/georgiafacts/2011/33smileyingramrdphoto-thumb.jpg", "addressLine1": "33 Smiley Ingram Road", "addressLine2": "", "city": "Cartersville", "county": "", "state": "GA", "zip": "30120", "kmz": "", "location": "33 Smiley Ingram Road", "locationid": "330604", "lat": "34.2028330", "lon": "-84.7536540", "url": "/info/330604"},
{"id": "330605", "title": "1120 West Avenue", "description": "", "thumbnail": "/files/georgiafacts/2011/1120westavephoto-thumb.jpg", "addressLine1": "1120 West Avenue", "addressLine2": "", "city": "Cartersville", "county": "", "state": "GA", "zip": "30120", "kmz": "", "location": "Undefined", "locationid": "0", "lat": "34.1515550", "lon": "-84.8236250", "url": "/info/330605"},
{"id": "330150", "title": "Pepperell Corners", "description": "", "addressLine1": "2300 Pepperell Parkway", "addressLine2": "", "city": "Opelika", "county": "", "state": "GA", "zip": "GA", "kmz": "", "location": "Undefined", "locationid": "0", "lat": "32.6389000", "lon": "-85.4142000", "url": "/info/330150"},
{"id": "330152", "title": "Commerce Park", "description": "", "addressLine1": "483 Commerce Park Drive", "addressLine2": "", "city": "Marietta", "county": "", "state": "GA", "zip": "30060", "kmz": "", "location": "Undefined", "locationid": "0", "lat": "33.9398392", "lon": "-84.5308270", "url": "/info/330152"},
{"id": "330158", "title": "2664 Carl Drive", "description": "", "thumbnail": "/files/georgiafacts/2011/dsc02438-thumb.jpg", "addressLine1": "2664 Carl Drive", "addressLine2": "", "city": "Gainesville", "county": "", "state": "GA", "zip": "30506", "kmz": "", "location": "2664 Carl Drive", "locationid": "330158", "lat": "34.3344710", "lon": "-83.9006650", "url": "/info/330158"},
{"id": "330160", "title": "660 Campbell Court", "description": "", "addressLine1": "660 Campbell Ct", "addressLine2": "", "city": "Lithia Springs", "county": "", "state": "GA", "zip": "30122", "kmz": "", "location": "Undefined", "locationid": "0", "lat": "33.7871189", "lon": "-84.6311960", "url": "/info/330160"},
{"id": "330167", "title": "101 Delano Drive", "description": "", "thumbnail": "/files/georgiafacts/2011/dsc_0419-thumb.jpg", "addressLine1": "101 Delano Drive", "addressLine2": "", "city": "Manchester", "county": "", "state": "GA", "zip": "31816", "kmz": "", "location": "101 Delano Drive", "locationid": "330167", "lat": "", "lon": "", "url": "/info/330167"},
{"id": "330083", "title": "Trade Center II - Eagles Landing", "description": "", "thumbnail": "/files/georgiafacts/2011/200eagleslandingaerial-html-thumb.jpg", "addressLine1": "200 Eagles Landing Parkway", "addressLine2": "", "city": "Stockbridge", "county": "", "state": "GA", "zip": "30281", "kmz": "", "location": "Trade Center II - Eagles Landing", "locationid": "330083", "lat": "33.5183877", "lon": "-84.1943715", "url": "/info/330083"},
{"id": "330084", "title": "975 Highway 52 Alt", "description": "", "thumbnail": "/files/georgiafacts/2011/975highway52alt004-thumb.jpg", "addressLine1": "975 Highway 52 Alt", "addressLine2": "", "city": "Chatsworth", "county": "", "state": "GA", "zip": "30705", "kmz": "", "location": "975 Highway 52 Alt", "locationid": "330084", "lat": "34.7639734", "lon": "-84.7857944", "url": "/info/330084"},
{"id": "330085", "title": "639 Industrial Blvd", "description": "", "thumbnail": "/files/georgiafacts/2011/639industrialblvd1-thumb.jpg", "addressLine1": "639 Industrial Blvd", "addressLine2": "", "city": "Chatsworth", "county": "", "state": "GA", "zip": "30705", "kmz": "", "location": "Undefined", "locationid": "0", "lat": "34.7909660", "lon": "-84.7844380", "url": "/info/330085"},
{"id": "330086", "title": "471 Eagles Landing", "description": "", "thumbnail": "/files/georgiafacts/2011/471eagleslandingaerial-8899-thumb.jpg", "addressLine1": "471 Eagles Landing Parkway", "addressLine2": "", "city": "Stockbridge", "county": "", "state": "GA", "zip": "30281", "kmz": "", "location": "Undefined", "locationid": "0", "lat": "33.5183854", "lon": "-84.1995890", "url": "/info/330086"},
{"id": "330087", "title": "NCI Building", "description": "", "addressLine1": "125 Pequanoc Drive", "addressLine2": "", "city": "Tallapoosa", "county": "", "state": "GA", "zip": "30176", "kmz": "", "location": "Undefined", "locationid": "0", "lat": "", "lon": "", "url": "/info/330087"},
{"id": "330091", "title": "2323 Sylvan Road", "description": "", "thumbnail": "/files/georgiafacts/2011/sylvanpic-thumb.jpg", "addressLine1": "2323 Sylvan Rd", "addressLine2": "", "city": "East Point", "county": "", "state": "GA", "zip": "30344", "kmz": "", "location": "2323 Sylvan Road", "locationid": "330091", "lat": "33.6910680", "lon": "-84.4203540", "url": "/info/330091"},
{"id": "330092", "title": "2001 Deere Drive", "description": "", "thumbnail": "/files/georgiafacts/2011/deere_aerialcropped-thumb.jpg", "addressLine1": "2001 Deere Dr", "addressLine2": "", "city": "Conyers", "county": "", "state": "GA", "zip": "30013", "kmz": "", "location": "2001 Deere Drive", "locationid": "330092", "lat": "33.6327840", "lon": "-83.9590890", "url": "/info/330092"},
{"id": "330098", "title": "Carter's Distribution Center", "description": "", "thumbnail": "/files/georgiafacts/2011/img_0549-thumb.jpg", "addressLine1": "11 Rogers Street", "addressLine2": "", "city": "Barnesville", "county": "", "state": "GA", "zip": "", "kmz": "", "location": "Undefined", "locationid": "0", "lat": "33.0558260", "lon": "-84.1490245", "url": "/info/330098"},
{"id": "330101", "title": "Madison South Executive Park - Building F", "description": "", "thumbnail": "/files/georgiafacts/2011/buildingf2_web-thumb.jpg", "addressLine1": "2151 Eatonton Hwy", "addressLine2": "", "city": "Madison", "county": "", "state": "GA", "zip": "30650", "kmz": "", "location": "Madison South Executive Park - Building F", "locationid": "330101", "lat": "", "lon": "", "url": "/info/330101"},
{"id": "330102", "title": "Madison South Executive Park - Building I", "description": "", "thumbnail": "/files/georgiafacts/2011/buildingi-thumb.jpg", "addressLine1": "2151 Eatonton Hwy, Building I", "addressLine2": "", "city": "Madison", "county": "", "state": "GA", "zip": "30650", "kmz": "", "location": "Undefined", "locationid": "0", "lat": "", "lon": "", "url": "/info/330102"},
{"id": "330103", "title": "Dundee Mills #2", "description": "", "thumbnail": "/files/georgiafacts/2011/755highfallsroad-thumb.jpg", "addressLine1": "755 High Falls Road", "addressLine2": "", "city": "Griffin", "county": "", "state": "GA", "zip": "30223", "kmz": "", "location": "Undefined", "locationid": "0", "lat": "33.2459513", "lon": "-84.2400171", "url": "/info/330103"},
{"id": "330105", "title": "1535 Industrial Drive", "description": "", "thumbnail": "/files/georgiafacts/2011/1535industrial-thumb.jpg", "addressLine1": "1535 Industrial Drive", "addressLine2": "", "city": "Griffin", "county": "", "state": "GA", "zip": "30224", "kmz": "", "location": "Undefined", "locationid": "0", "lat": "33.2212520", "lon": "-84.2960770", "url": "/info/330105"},
{"id": "330111", "title": "119 Riverside Drive", "description": "", "thumbnail": "/files/georgiafacts/2011/5600sf119riversidedrphoto-thumb.jpg", "addressLine1": "119 Riverside Drive", "addressLine2": "", "city": "Cartersville", "county": "", "state": "GA", "zip": "30120", "kmz": "", "location": "119 Riverside Drive", "locationid": "330111", "lat": "34.1444780", "lon": "-84.8490250", "url": "/info/330111"},
{"id": "330113", "title": "441 Dunbar Road", "description": "", "thumbnail": "/files/georgiafacts/2011/dscf1255(2)-thumb.jpg", "addressLine1": "441 Dunbar Road", "addressLine2": "", "city": "Warner Robins", "county": "", "state": "GA", "zip": "31093", "kmz": "", "location": "Undefined", "locationid": "0", "lat": "32.6524330", "lon": "-83.6486840", "url": "/info/330113"},
{"id": "330115", "title": "Former AstenJohnson Plant", "description": "", "thumbnail": "/files/georgiafacts/2011/primaryphoto_eflyer-1717-thumb.jpg", "addressLine1": "1157 Battlecreek Road", "addressLine2": "", "city": "Jonesboro", "county": "", "state": "GA", "zip": "30236", "kmz": "", "location": "Former AstenJohnson Plant", "locationid": "330115", "lat": "33.5523330", "lon": "-84.3526940", "url": "/info/330115"},
{"id": "330116", "title": "4380 International Pkwy", "description": "", "thumbnail": "/files/georgiafacts/2011/4380primaryphoto_eflyer-thumb.jpg", "addressLine1": "4380 International Pkwy", "addressLine2": "", "city": "Atlanta", "county": "", "state": "GA", "zip": "30354", "kmz": "", "location": "4380 International Pkwy", "locationid": "330116", "lat": "33.6344100", "lon": "-84.3935100", "url": "/info/330116"},
{"id": "330117", "title": "4350 International Pkwy", "description": "", "thumbnail": "/files/georgiafacts/2011/4350primaryphoto_eflyer-thumb.jpg", "addressLine1": "4350 International Pkwy", "addressLine2": "", "city": "Atlanta", "county": "", "state": "GA", "zip": "GA", "kmz": "", "location": "4350 International Pkwy", "locationid": "330117", "lat": "33.6344400", "lon": "-84.3943300", "url": "/info/330117"},
{"id": "330118", "title": "500 Jerry Steel Lane, McDonough", "description": "", "addressLine1": "500 Jerry Steel", "addressLine2": "", "city": "McDonough", "county": "", "state": "GA", "zip": "30253", "kmz": "", "location": "Undefined", "locationid": "0", "lat": "33.3978940", "lon": "-84.1535900", "url": "/info/330118"},
{"id": "330120", "title": "Kesco Building", "description": "", "thumbnail": "/files/georgiafacts/2011/10500sf80monroecrsgphoto-thumb.jpg", "addressLine1": "80 Monroe Crossing", "addressLine2": "", "city": "Cartersville", "county": "", "state": "GA", "zip": "30120", "kmz": "", "location": "Kesco Building", "locationid": "330120", "lat": "34.1486630", "lon": "-84.7539190", "url": "/info/330120"},
{"id": "330121", "title": "Gun Country Outdoors", "description": "", "thumbnail": "/files/georgiafacts/2011/dsc00493-thumb.jpg", "addressLine1": "2139 Greenville Road", "addressLine2": "", "city": "LaGrange", "county": "", "state": "GA", "zip": "30241", "kmz": "", "location": "Undefined", "locationid": "0", "lat": "33.0435070", "lon": "-84.9556640", "url": "/info/330121"},
{"id": "330124", "title": "5 Dean Drive", "description": "", "thumbnail": "/files/georgiafacts/2011/7200sf5deandrphoto-thumb.jpg", "addressLine1": "5 Dean Drive", "addressLine2": "", "city": "Cartersville", "county": "", "state": "GA", "zip": "30121", "kmz": "", "location": "5 Dean Drive", "locationid": "330124", "lat": "34.2166590", "lon": "-84.7947120", "url": "/info/330124"},
{"id": "330126", "title": "4179 Vansant Road", "description": "", "addressLine1": "4179 Vansant", "addressLine2": "", "city": "Douglasville", "county": "", "state": "GA", "zip": "Ga", "kmz": "", "location": "Undefined", "locationid": "0", "lat": "33.7517120", "lon": "-84.7092890", "url": "/info/330126"},
{"id": "330128", "title": "Nelson - Glenwood Place", "description": "", "thumbnail": "/files/georgiafacts/2011/nelson-glenwoodplace-thumb.jpg", "addressLine1": "636 Glenwood Place", "addressLine2": "", "city": "Dalton", "county": "", "state": "GA", "zip": "30720", "kmz": "", "location": "Nelson - Glenwood Place", "locationid": "330128", "lat": "34.7649035", "lon": "-84.9657245", "url": "/info/330128"},
{"id": "330129", "title": "Crown Mill", "description": "", "thumbnail": "/files/georgiafacts/2011/crownmill-thumb.jpg", "addressLine1": "821 Chattanooga Avenue", "addressLine2": "", "city": "Dalton", "county": "", "state": "GA", "zip": "30720", "kmz": "", "location": "Crown Mill", "locationid": "330129", "lat": "34.7830715", "lon": "-84.9727574", "url": "/info/330129"},
{"id": "330130", "title": "T Mobile", "description": "", "addressLine1": "210 Wiley Road", "addressLine2": "", "city": "LaGrange", "county": "", "state": "GA", "zip": "30240", "kmz": "", "location": "T Mobile", "locationid": "330130", "lat": "32.9922080", "lon": "-85.0494490", "url": "/info/330130"},
{"id": "330131", "title": "80 Coleman Boulevard", "description": "", "thumbnail": "/files/georgiafacts/2011/80coleman-horizontalaerial-thumb.jpg", "addressLine1": "80 Coleman Boulevard", "addressLine2": "", "city": "Savannah", "county": "", "state": "GA", "zip": "31407", "kmz": "", "location": "80 Coleman Boulevard", "locationid": "330131", "lat": "32.1086310", "lon": "-81.2237740", "url": "/info/330131"},
{"id": "330134", "title": "4179 Vansant Road", "description": "", "thumbnail": "/files/georgiafacts/2011/4179vansantroad-thumb.jpg", "addressLine1": "4179 Vansant Rd", "addressLine2": "", "city": "Douglasville", "county": "", "state": "GA", "zip": "30135", "kmz": "", "location": "4179 Vansant Road", "locationid": "330134", "lat": "33.7517120", "lon": "-84.7092890", "url": "/info/330134"},
{"id": "330138", "title": "1436 Municipal Pkwy", "description": "", "addressLine1": "1436 Municipal Pkwy", "addressLine2": "", "city": "Douglasville", "county": "", "state": "GA", "zip": "", "kmz": "", "location": "Undefined", "locationid": "0", "lat": "33.7670820", "lon": "-84.7203620", "url": "/info/330138"},
{"id": "330187", "title": "Corporate Lakes", "description": "", "addressLine1": "1100 Laval Boulevard", "addressLine2": "Suite 110", "city": "Lawrenceville", "county": "", "state": "GA", "zip": "30043", "kmz": "", "location": "Corporate Lakes", "locationid": "330187", "lat": "33.9613190", "lon": "-84.0427190", "url": "/info/330187"},
{"id": "330209", "title": "240 Northpoint Pkwy", "description": "", "thumbnail": "/files/georgiafacts/2011/240northpointpkwybldg-thumb.jpg", "addressLine1": "240 Northpoint Pkwy", "addressLine2": "", "city": "Acworth", "county": "", "state": "GA", "zip": "30102", "kmz": "", "location": "240 Northpoint Pkwy", "locationid": "330209", "lat": "34.0841330", "lon": "-84.6581300", "url": "/info/330209"},
{"id": "330214", "title": "335 Wilbanks Drive", "description": "", "thumbnail": "/files/georgiafacts/2011/335wilbanksdrive-thumb.jpg", "addressLine1": "335 Wilbanks Drive", "addressLine2": "", "city": "Ball Ground", "county": "", "state": "GA", "zip": "30107", "kmz": "", "location": "335 Wilbanks Drive", "locationid": "330214", "lat": "34.3013630", "lon": "-84.4200240", "url": "/info/330214"},
{"id": "330215", "title": "472 Eagles Landing Parkway", "description": "", "thumbnail": "/files/georgiafacts/2011/472aerial-thumb.jpg", "addressLine1": "472 Eagles Landing Parkway", "addressLine2": "", "city": "Stockbridge", "county": "", "state": "GA", "zip": "30281", "kmz": "", "location": "472 Eagles Landing Parkway", "locationid": "330215", "lat": "33.5168860", "lon": "-84.2090950", "url": "/info/330215"},
{"id": "330216", "title": "JIP Crane Building", "description": "", "thumbnail": "/files/georgiafacts/2011/2590pic-thumb.jpg", "addressLine1": "2590 Jason Industrial Parkway", "addressLine2": "", "city": "Winston", "county": "", "state": "GA", "zip": "30187", "kmz": "", "location": "JIP Crane Building", "locationid": "330216", "lat": "33.7349650", "lon": "-84.8176650", "url": "/info/330216"},
{"id": "330220", "title": "4018 Chamblee Road", "description": "", "addressLine1": "4018 Chamblee Road", "addressLine2": "", "city": "Oakwood", "county": "", "state": "GA", "zip": "", "kmz": "", "location": "4018 Chamblee Road", "locationid": "330220", "lat": "34.2179034", "lon": "-83.8895104", "url": "/info/330220"},
{"id": "330222", "title": "2530 business drive, cumming ga 30028", "description": "", "addressLine1": "2530 business drive", "addressLine2": "", "city": "cumming", "county": "", "state": "GA", "zip": "30028", "kmz": "", "location": "2530 business drive, cumming ga 30028", "locationid": "330222", "lat": "34.2396300", "lon": "-84.2015830", "url": "/info/330222"},
{"id": "330223", "title": "84.000 SF Warehouse", "description": "", "thumbnail": "/files/georgiafacts/2011/whsephoto-thumb.jpg", "addressLine1": "5585 GA Hwy 204", "addressLine2": "", "city": "Ellabell", "county": "", "state": "GA", "zip": "31308", "kmz": "", "location": "84.000 SF Warehouse", "locationid": "330223", "lat": "32.1343749", "lon": "-81.4380025", "url": "/info/330223"},
{"id": "330227", "title": "210 commerce drive, building  3", "description": "", "thumbnail": "/files/georgiafacts/2012/210commercedrive2-thumb.jpg", "addressLine1": "210 commerce drive", "addressLine2": "building 3", "city": "dallas", "county": "", "state": "GA", "zip": "30132", "kmz": "", "location": "210 commerce drive, building  3", "locationid": "330227", "lat": "33.9060840", "lon": "-84.8042260", "url": "/info/330227"},
{"id": "330228", "title": "1205 Greenvale Lane, Albany GA", "description": "", "addressLine1": "1205 greenvale lane", "addressLine2": "", "city": "Albany", "county": "", "state": "GA", "zip": "31707", "kmz": "", "location": "Undefined", "locationid": "0", "lat": "31.5794770", "lon": "-84.1856680", "url": "/info/330228"},
{"id": "330229", "title": "9109 Hazelbrand Road", "description": "", "thumbnail": "/files/georgiafacts/2011/hazelbrand_web-thumb.jpg", "addressLine1": "9109 Hazelbrand Road", "addressLine2": "", "city": "Covington", "county": "", "state": "GA", "zip": "30014", "kmz": "", "location": "Undefined", "locationid": "0", "lat": "33.6064340", "lon": "-83.8356774", "url": "/info/330229"},
{"id": "330230", "title": "225 Clover", "description": "", "thumbnail": "/files/georgiafacts/2011/comerfront-thumb.jpg", "addressLine1": "225 Clover Ave", "addressLine2": "", "city": "Comer", "county": "", "state": "GA", "zip": "30629", "kmz": "", "location": "Undefined", "locationid": "0", "lat": "34.0709191", "lon": "-83.1249043", "url": "/info/330230"},
{"id": "330235", "title": "122 Newton Bridge Industrial", "description": "", "thumbnail": "/files/georgiafacts/2011/front_view_122_newton-thumb.png", "addressLine1": "122 Newton Bridge Industrial Way", "addressLine2": "", "city": "Athens", "county": "", "state": "GA", "zip": "30607", "kmz": "", "location": "122 Newton Bridge Industrial", "locationid": "330235", "lat": "", "lon": "", "url": "/info/330235"},
{"id": "330236", "title": "Anvil Building", "description": "", "thumbnail": "/files/georgiafacts/2011/dsc01335-thumb.jpg", "addressLine1": "11021 Clito Road", "addressLine2": "", "city": "Statesboro", "county": "", "state": "GA", "zip": "30458", "kmz": "", "location": "Undefined", "locationid": "0", "lat": "32.5150610", "lon": "-81.7511840", "url": "/info/330236"},
{"id": "330239", "title": "Overhead Door", "description": "", "thumbnail": "/files/georgiafacts/2011/smallfrontoverhead-thumb.jpg", "addressLine1": "330 Athena Dr", "addressLine2": "", "city": "Athens", "county": "", "state": "GA", "zip": "30601", "kmz": "", "location": "Undefined", "locationid": "0", "lat": "33.9769250", "lon": "-83.3410820", "url": "/info/330239"},
{"id": "330242", "title": "553 & 555 Old Hull Road", "description": "", "thumbnail": "/files/georgiafacts/2011/front_view_553_old_hull-thumb.png", "addressLine1": "553 Old Hull Rd", "addressLine2": "", "city": "Athens", "county": "", "state": "GA", "zip": "30607", "kmz": "", "location": "Undefined", "locationid": "0", "lat": "33.9828310", "lon": "-83.3432432", "url": "/info/330242"},
{"id": "330243", "title": "Gateway Industrial Park 1 SODA Building", "description": "", "thumbnail": "/files/georgiafacts/2011/brochurephoto--statesboroga302900381-thumb.jpg", "addressLine1": "8801 Zell Miller Parkway", "addressLine2": "", "city": "Statesboro", "county": "", "state": "GA", "zip": "30458", "kmz": "", "location": "Undefined", "locationid": "0", "lat": "", "lon": "", "url": "/info/330243"},
{"id": "330247", "title": "Ziegler Tools Building - Owner Relocating", "description": "", "thumbnail": "/files/georgiafacts/2011/picture1-thumb.jpg", "addressLine1": "2499 Industrial Park Drive", "addressLine2": "", "city": "Macon", "county": "", "state": "GA", "zip": "31216", "kmz": "", "location": "Ziegler Tools Building - Owner Relocating", "locationid": "330247", "lat": "32.7070000", "lon": "-83.6602830", "url": "/info/330247"},
{"id": "330252", "title": "97 Old Dixie Highway", "description": "", "thumbnail": "/files/georgiafacts/2011/18000sf97olddixiehwyphoto1,adairsville-thumb.jpg", "addressLine1": "97 Old Dixie Highway", "addressLine2": "", "city": "Adairsville", "county": "", "state": "GA", "zip": "30103", "kmz": "", "location": "97 Old Dixie Highway", "locationid": "330252", "lat": "34.3806600", "lon": "-84.9360330", "url": "/info/330252"},
{"id": "330253", "title": "Pipe Manufacturing Facility", "description": "", "thumbnail": "/files/georgiafacts/2011/boreflextennille-thumb.jpg", "addressLine1": "900 Joiner Road", "addressLine2": "", "city": "Tennille", "county": "", "state": "GA", "zip": "31089", "kmz": "", "location": "Undefined", "locationid": "0", "lat": "32.9283599", "lon": "-82.8224228", "url": "/info/330253"},
{"id": "330255", "title": "Allegheny Rubber", "description": "", "thumbnail": "/files/georgiafacts/2011/alleghenyrubbermacon-thumb.jpg", "addressLine1": "545 Guy Paine Rd", "addressLine2": "", "city": "Macon", "county": "", "state": "GA", "zip": "31206", "kmz": "", "location": "Undefined", "locationid": "0", "lat": "32.7823540", "lon": "-83.6464800", "url": "/info/330255"},
{"id": "330257", "title": "2677 Abutment Road", "description": "", "thumbnail": "/files/georgiafacts/2011/2677lakelandroad-thumb.jpg", "addressLine1": "2677 Abutment Road", "addressLine2": "", "city": "Dalton", "county": "", "state": "GA", "zip": "", "kmz": "", "location": "2677 Abutment Road", "locationid": "330257", "lat": "34.7143242", "lon": "-84.9608454", "url": "/info/330257"},
{"id": "330259", "title": "135 Roberson Mill Road", "description": "", "thumbnail": "/files/georgiafacts/2011/135robersonmill-thumb.jpg", "addressLine1": "135 Roberson Mill Road", "addressLine2": "", "city": "Milledgeville", "county": "", "state": "GA", "zip": "31061", "kmz": "", "location": "Undefined", "locationid": "0", "lat": "33.1061570", "lon": "-83.2594500", "url": "/info/330259"},
{"id": "330261", "title": "442 N. Hamilton Street", "description": "", "thumbnail": "/files/georgiafacts/2011/442n.hamiltonphoto-thumb.jpg", "addressLine1": "442 North Hamilton Street", "addressLine2": "", "city": "Dalton", "county": "", "state": "GA", "zip": "30720", "kmz": "", "location": "442 N. Hamilton Street", "locationid": "330261", "lat": "34.7783870", "lon": "-84.9670240", "url": "/info/330261"},
{"id": "330264", "title": "White Stag Building", "description": "", "thumbnail": "/files/georgiafacts/2011/whitestagbuildingaerial-thumb.jpg", "addressLine1": "1113 South Main Street, Sylvania, GA 30467", "addressLine2": "", "city": "Sylvania", "county": "", "state": "GA", "zip": "30467", "kmz": "", "location": "White Stag Building", "locationid": "330264", "lat": "32.7380517", "lon": "-81.6280172", "url": "/info/330264"},
{"id": "330267", "title": "Cruse Commons", "description": "", "thumbnail": "/files/georgiafacts/2011/crusecommons2ndpicture-thumb.jpg", "addressLine1": "3545 Cruse Road", "addressLine2": "", "city": "Lawrenceville", "county": "", "state": "GA", "zip": "30044", "kmz": "", "location": "Undefined", "locationid": "0", "lat": "33.9264977", "lon": "-84.1099991", "url": "/info/330267"},
{"id": "330273", "title": "Barrow/former Riverside Steel", "description": "", "addressLine1": "1237 Hardigree Rd", "addressLine2": "", "city": "Winder", "county": "", "state": "GA", "zip": "30680", "kmz": "", "location": "Undefined", "locationid": "0", "lat": "33.9741425", "lon": "-83.6473570", "url": "/info/330273"},
{"id": "330279", "title": "New Holland Agriculture Building", "description": "", "thumbnail": "/files/georgiafacts/2011/img_0453-thumb.jpg", "addressLine1": "325 Firetower Road", "addressLine2": "", "city": "Dublin", "county": "", "state": "GA", "zip": "31021", "kmz": "", "location": "New Holland Agriculture Building", "locationid": "330279", "lat": "32.5018502", "lon": "-82.9391520", "url": "/info/330279"},
{"id": "330282", "title": "Eldorado Stone Building", "description": "", "thumbnail": "/files/georgiafacts/2011/img_0440-thumb.jpg", "addressLine1": "2020 Waldrep Industrial Blvd.", "addressLine2": "", "city": "Dublin", "county": "", "state": "GA", "zip": "31021", "kmz": "", "location": "Eldorado Stone Building", "locationid": "330282", "lat": "32.5135616", "lon": "-82.9467344", "url": "/info/330282"},
{"id": "330283", "title": "Mohawk Industries Building", "description": "", "thumbnail": "/files/georgiafacts/2011/_mg_9801-thumb.jpg", "addressLine1": "443 Nathaniel Drive", "addressLine2": "", "city": "Dublin", "county": "", "state": "GA", "zip": "31021", "kmz": "", "location": "Mohawk Industries Building", "locationid": "330283", "lat": "32.5344041", "lon": "-82.8794861", "url": "/info/330283"},
{"id": "330288", "title": "Biljo Warehouse", "description": "", "thumbnail": "/files/georgiafacts/2011/_mg_9778-thumb.jpg", "addressLine1": "235 Nathaniel Drive", "addressLine2": "", "city": "East Dublin", "county": "", "state": "GA", "zip": "31027", "kmz": "", "location": "Biljo Warehouse", "locationid": "330288", "lat": "32.5294291", "lon": "-82.8742074", "url": "/info/330288"},
{"id": "330290", "title": "2053 Mountain Industrial Boulevard", "description": "", "thumbnail": "/files/georgiafacts/2011/2053feature-thumb.jpg", "addressLine1": "2053 Mountain Industrial Boulevard", "addressLine2": "", "city": "Tucker", "county": "", "state": "GA", "zip": "30084", "kmz": "", "location": "2053 Mountain Industrial Boulevard", "locationid": "330290", "lat": "33.8441317", "lon": "-84.2008835", "url": "/info/330290"},
{"id": "330291", "title": "5340 McEver Road, Unit G", "description": "", "thumbnail": "/files/georgiafacts/2011/5340feature-thumb.jpg", "addressLine1": "5340 McEver Road, Unit G", "addressLine2": "", "city": "Oakwood", "county": "", "state": "GA", "zip": "30566", "kmz": "", "location": "Undefined", "locationid": "0", "lat": "34.2082570", "lon": "-83.9144680", "url": "/info/330291"},
{"id": "330292", "title": "3195 North Lanier Parkway", "description": "", "thumbnail": "/files/georgiafacts/2011/3195n.lanierpkwyphoto-thumb.tif", "addressLine1": "3195 North Lanier Parkway", "addressLine2": "", "city": "Decatur", "county": "", "state": "GA", "zip": "30030", "kmz": "", "location": "3195 North Lanier Parkway", "locationid": "330292", "lat": "33.6914749", "lon": "-84.2688060", "url": "/info/330292"},
{"id": "330293", "title": "14230 Lochridge Boulevard, Unit F", "description": "", "thumbnail": "/files/georgiafacts/2011/14230feature-thumb.jpg", "addressLine1": "14230 Lochridge Boulevard, Unit F", "addressLine2": "", "city": "Covington", "county": "", "state": "GA", "zip": "30014", "kmz": "", "location": "Undefined", "locationid": "0", "lat": "33.6101210", "lon": "-83.8156740", "url": "/info/330293"},
{"id": "330294", "title": "3316 Colonial Parkway", "description": "", "thumbnail": "/files/georgiafacts/2011/3316feature-thumb.jpg", "addressLine1": "3316 Colonial Parkway", "addressLine2": "", "city": "Decatur", "county": "", "state": "GA", "zip": "30030", "kmz": "", "location": "Undefined", "locationid": "0", "lat": "33.6863780", "lon": "-84.2653620", "url": "/info/330294"},
{"id": "330302", "title": "Hembree Park", "description": "", "thumbnail": "/files/georgiafacts/2011/105ii-thumb.jpg", "addressLine1": "105 Hembree Park Dr", "addressLine2": "", "city": "Roswell", "county": "", "state": "GA", "zip": "30076", "kmz": "", "location": "Hembree Park", "locationid": "330302", "lat": "34.0558231", "lon": "-84.3151669", "url": "/info/330302"},
{"id": "330304", "title": "Hembree Park", "description": "", "thumbnail": "/files/georgiafacts/2011/200-thumb.jpg", "addressLine1": "200 Hembree Park Dr", "addressLine2": "", "city": "Roswell", "county": "", "state": "GA", "zip": "30076", "kmz": "", "location": "Hembree Park", "locationid": "330304", "lat": "34.0561463", "lon": "-84.3180213", "url": "/info/330304"},
{"id": "330305", "title": "Hembree Park", "description": "", "thumbnail": "/files/georgiafacts/2011/645-thumb.jpg", "addressLine1": "645 Hembree Parkway", "addressLine2": "", "city": "Roswell", "county": "", "state": "GA", "zip": "30076", "kmz": "", "location": "Undefined", "locationid": "0", "lat": "34.0575910", "lon": "-84.3165400", "url": "/info/330305"},
{"id": "330306", "title": "Hembree Park", "description": "", "thumbnail": "/files/georgiafacts/2011/655_645-thumb.jpg", "addressLine1": "655 Hembree Park Drive", "addressLine2": "", "city": "Roswell", "county": "", "state": "GA", "zip": "30076", "kmz": "", "location": "Hembree Park", "locationid": "330306", "lat": "", "lon": "", "url": "/info/330306"},
{"id": "330307", "title": "61 Kelli Clark Court", "description": "", "thumbnail": "/files/georgiafacts/2011/10000sf65kelliclarkctphoto-thumb.jpg", "addressLine1": "61 Kelli Clark Court", "addressLine2": "", "city": "Cartersville", "county": "", "state": "GA", "zip": "30121", "kmz": "", "location": "61 Kelli Clark Court", "locationid": "330307", "lat": "34.0825570", "lon": "-84.7288190", "url": "/info/330307"},
{"id": "330314", "title": "709 N. Belair Rd.", "description": "", "thumbnail": "/files/georgiafacts/2011/709n.belairrd.-thumb.jpg", "addressLine1": "709 N. Belair Rd.", "addressLine2": "", "city": "Evans", "county": "", "state": "GA", "zip": "30809", "kmz": "", "location": "Undefined", "locationid": "0", "lat": "33.5430380", "lon": "-82.1227600", "url": "/info/330314"},
{"id": "330316", "title": "707 N. Belair Rd.", "description": "", "thumbnail": "/files/georgiafacts/2011/707n.belairrd.-thumb.jpg", "addressLine1": "707 N. Belair Rd.", "addressLine2": "", "city": "Evans", "county": "", "state": "GA", "zip": "30809", "kmz": "", "location": "707 N. Belair Rd.", "locationid": "330316", "lat": "33.5422540", "lon": "-82.1237460", "url": "/info/330316"},
{"id": "330318", "title": "500 Jerry Steel Lane", "description": "", "addressLine1": "500 Jerry Steel Lane", "addressLine2": "", "city": "McDonough", "county": "", "state": "GA", "zip": "30253", "kmz": "", "location": "Undefined", "locationid": "0", "lat": "", "lon": "", "url": "/info/330318"},
{"id": "330320", "title": "5125 Fulton Industrial Blvd", "description": "", "addressLine1": "5125 Fulton Industrial Blvd", "addressLine2": "", "city": "Atlanta", "county": "", "state": "GA", "zip": "30336", "kmz": "", "location": "5125 Fulton Industrial Blvd", "locationid": "330320", "lat": "33.7448965", "lon": "-84.5600500", "url": "/info/330320"},
{"id": "330321", "title": "769 S Erwin Street", "description": "", "thumbnail": "/files/georgiafacts/2011/29005sf765.5serwinsttaxmapsphoto-thumb.jpg", "addressLine1": "769 S Erwin Street", "addressLine2": "", "city": "Cartersville", "county": "", "state": "GA", "zip": "30120", "kmz": "", "location": "769 S Erwin Street", "locationid": "330321", "lat": "34.1469620", "lon": "-84.7947180", "url": "/info/330321"},
{"id": "330324", "title": "Propex", "description": "", "thumbnail": "/files/georgiafacts/2011/_mg_9325-pdfpic1-thumb.jpg", "addressLine1": "1501 Colquitt Hwy", "addressLine2": "", "city": "Bainbridge", "county": "", "state": "GA", "zip": "39817", "kmz": "", "location": "Propex", "locationid": "330324", "lat": "30.9840304", "lon": "-84.6169298", "url": "/info/330324"},
{"id": "330326", "title": "Mohawk Industries", "description": "", "addressLine1": "443 Nathaniel Drive", "addressLine2": "", "city": "East Dublin", "county": "", "state": "GA", "zip": "31027", "kmz": "", "location": "Mohawk Industries", "locationid": "330326", "lat": "32.5344041", "lon": "-82.8794861", "url": "/info/330326"},
{"id": "330330", "title": "97 Winfield Circle Hartwell GA", "description": "", "thumbnail": "/files/georgiafacts/2011/100_5354-thumb.jpg", "addressLine1": "97 Winfield Circle", "addressLine2": "", "city": "Hartwell", "county": "", "state": "GA", "zip": "30643", "kmz": "", "location": "Undefined", "locationid": "0", "lat": "", "lon": "", "url": "/info/330330"},
{"id": "330337", "title": "Corporate Office - Historic Downtown Vidalia", "description": "", "thumbnail": "/files/georgiafacts/2011/125church511001-thumb.jpg", "addressLine1": "125 Church Street", "addressLine2": "", "city": "Vidalia", "county": "", "state": "GA", "zip": "30474", "kmz": "", "location": "Corporate Office - Historic Downtown Vidalia", "locationid": "330337", "lat": "32.2175679", "lon": "-82.4132271", "url": "/info/330337"},
{"id": "330339", "title": "125 Church Street", "description": "", "thumbnail": "/files/georgiafacts/2011/125churchstreet-thumb.jpg", "addressLine1": "125 Church Street", "addressLine2": "", "city": "Vidalia", "county": "", "state": "GA", "zip": "30474", "kmz": "", "location": "125 Church Street", "locationid": "330339", "lat": "32.2175679", "lon": "-82.4132271", "url": "/info/330339"},
{"id": "330342", "title": "The Gaster Building", "description": "", "thumbnail": "/files/georgiafacts/2011/gasterbldg-coastalelectric13-thumb.jpg", "addressLine1": "U.S Highway 57", "addressLine2": "", "city": "Eulonia", "county": "", "state": "GA", "zip": "31331", "kmz": "", "location": "The Gaster Building", "locationid": "330342", "lat": "31.5250000", "lon": "-81.4330000", "url": "/info/330342"},
{"id": "330351", "title": "iLevel", "description": "", "thumbnail": "/files/georgiafacts/2011/dsc00589-thumb.jpg", "addressLine1": "410 Clay Rd", "addressLine2": "", "city": "Valdosta", "county": "", "state": "GA", "zip": "31603", "kmz": "", "location": "iLevel", "locationid": "330351", "lat": "30.8322000", "lon": "-83.2548000", "url": "/info/330351"},
{"id": "330354", "title": "Organic Milling", "description": "", "thumbnail": "/files/georgiafacts/2011/mainplant-thumb.jpg", "addressLine1": "701 N Forest St", "addressLine2": "", "city": "Valdosta", "county": "", "state": "GA", "zip": "31603", "kmz": "", "location": "Organic Milling", "locationid": "330354", "lat": "30.8415000", "lon": "-83.2667000", "url": "/info/330354"},
{"id": "330355", "title": "Firstline Facility", "description": "", "thumbnail": "/files/georgiafacts/2011/firstline-thumb.jpg", "addressLine1": "511 Highland Drive", "addressLine2": "", "city": "Valdosta", "county": "", "state": "GA", "zip": "31601", "kmz": "", "location": "Firstline Facility", "locationid": "330355", "lat": "30.7995000", "lon": "-83.2752000", "url": "/info/330355"},
{"id": "330357", "title": "1553 ME Thompson Dr.", "description": "", "thumbnail": "/files/georgiafacts/2011/1553methompson-thumb.jpg", "addressLine1": "1553 ME Thompson Dr", "addressLine2": "", "city": "Valdosta", "county": "", "state": "GA", "zip": "31603", "kmz": "", "location": "Undefined", "locationid": "0", "lat": "30.7976000", "lon": "-83.2821000", "url": "/info/330357"},
{"id": "330358", "title": "EMC Distribution", "description": "", "thumbnail": "/files/georgiafacts/2011/emc-dist-thumb.jpg", "addressLine1": "3400 GA Hwy 122", "addressLine2": "", "city": "Hahira", "county": "", "state": "GA", "zip": "", "kmz": "", "location": "Undefined", "locationid": "0", "lat": "30.9962495", "lon": "-83.3528620", "url": "/info/330358"},
{"id": "330359", "title": "Pelham Truck and Tractor", "description": "", "thumbnail": "/files/georgiafacts/2011/pelhamtandtfront-thumb.jpg", "addressLine1": "2159 US Hwy 19", "addressLine2": "", "city": "Pelham", "county": "", "state": "GA", "zip": "31779", "kmz": "", "location": "Undefined", "locationid": "0", "lat": "31.1264949", "lon": "-84.1403222", "url": "/info/330359"},
{"id": "330360", "title": "O'San Building", "description": "", "thumbnail": "/files/georgiafacts/2011/osanpicture-thumb.jpg", "addressLine1": "20 Industrial Blvd", "addressLine2": "", "city": "Camilla", "county": "", "state": "GA", "zip": "31730", "kmz": "", "location": "O'San Building", "locationid": "330360", "lat": "31.2239880", "lon": "-84.1980040", "url": "/info/330360"},
{"id": "330361", "title": "FMI Building", "description": "", "thumbnail": "/files/georgiafacts/2011/fmipicture-thumb.jpg", "addressLine1": "370 Burson Road", "addressLine2": "", "city": "Camilla", "county": "", "state": "GA", "zip": "31730", "kmz": "", "location": "FMI Building", "locationid": "330361", "lat": "31.2174350", "lon": "-84.1890210", "url": "/info/330361"},
{"id": "330363", "title": "Goody's Building", "description": "", "thumbnail": "/files/georgiafacts/2011/goodysfrontview-thumb.jpg", "addressLine1": "184 Grant Street", "addressLine2": "", "city": "Pelham", "county": "", "state": "GA", "zip": "31779", "kmz": "", "location": "Goody's Building", "locationid": "330363", "lat": "31.1150870", "lon": "-84.1466610", "url": "/info/330363"},
{"id": "330364", "title": "Manufacturing / Distribution", "description": "", "thumbnail": "/files/georgiafacts/2011/picture1-1049-thumb.jpg", "addressLine1": "1198 W Highway 280", "addressLine2": "", "city": "Cordele", "county": "", "state": "GA", "zip": "31015", "kmz": "", "location": "Manufacturing / Distribution", "locationid": "330364", "lat": "31.9567560", "lon": "-83.8157430", "url": "/info/330364"},
{"id": "330365", "title": "Former Bell South Call Center", "description": "", "thumbnail": "/files/georgiafacts/2011/img_0625-thumb.jpg", "addressLine1": "1655 Eisenhower Parkway", "addressLine2": "", "city": "Macon", "county": "", "state": "GA", "zip": "31206", "kmz": "", "location": "Former Bell South Call Center", "locationid": "330365", "lat": "32.8155250", "lon": "-83.6711480", "url": "/info/330365"},
{"id": "330371", "title": "2 Kelli Clark Court", "description": "", "thumbnail": "/files/georgiafacts/2011/10265_2kelliclarkcourt-thumb.jpg", "addressLine1": "2 Kelli Clark Court", "addressLine2": "", "city": "Cartersville", "county": "", "state": "GA", "zip": "30121", "kmz": "", "location": "2 Kelli Clark Court", "locationid": "330371", "lat": "34.0804800", "lon": "-84.7286700", "url": "/info/330371"},
{"id": "330374", "title": "Wabco Complex", "description": "", "thumbnail": "/files/georgiafacts/2011/wabco-thumb.jpg", "addressLine1": "Hwy 123", "addressLine2": "", "city": "Toccoa", "county": "", "state": "GA", "zip": "30577", "kmz": "", "location": "Undefined", "locationid": "0", "lat": "", "lon": "", "url": "/info/330374"},
{"id": "330378", "title": "Turner Road", "description": "", "thumbnail": "/files/georgiafacts/2011/outsidephoto-thumb.jpg", "addressLine1": "1048 Turner Road", "addressLine2": "", "city": "Eastanollee", "county": "", "state": "GA", "zip": "30538", "kmz": "", "location": "Undefined", "locationid": "0", "lat": "", "lon": "", "url": "/info/330378"},
{"id": "330379", "title": "Food Processing Building", "description": "", "thumbnail": "/files/georgiafacts/2011/dsc_1830-thumb.jpg", "addressLine1": "525 Industrial Park Road", "addressLine2": "", "city": "Sylvania", "county": "", "state": "GA", "zip": "30467", "kmz": "", "location": "Food Processing Building", "locationid": "330379", "lat": "32.7690988", "lon": "-81.6705874", "url": "/info/330379"},
{"id": "330383", "title": "230 Industrial Park Road", "description": "", "thumbnail": "/files/georgiafacts/2011/230industrialpark-thumb.jpg", "addressLine1": "230 Industrial Park Road", "addressLine2": "", "city": "Baldwin", "county": "", "state": "GA", "zip": "30511", "kmz": "", "location": "Undefined", "locationid": "0", "lat": "34.4948900", "lon": "-83.5538419", "url": "/info/330383"},
{"id": "330384", "title": "2500 Donn Drive", "description": "", "thumbnail": "/files/georgiafacts/2011/2500donndrphoto-thumb.jpg", "addressLine1": "2500 Donn Drive", "addressLine2": "", "city": "Cartersville", "county": "", "state": "GA", "zip": "30120", "kmz": "", "location": "2500 Donn Drive", "locationid": "330384", "lat": "34.1857900", "lon": "-84.8083100", "url": "/info/330384"},
{"id": "330386", "title": "3721 Old Oakwood Road", "description": "", "thumbnail": "/files/georgiafacts/2011/dsc02555-thumb.jpg", "addressLine1": "3721 Old Oakwood Road", "addressLine2": "", "city": "Oakwood", "county": "", "state": "GA", "zip": "30566", "kmz": "", "location": "Undefined", "locationid": "0", "lat": "34.2328290", "lon": "-83.8812630", "url": "/info/330386"},
{"id": "330387", "title": "2126 Hilton Drive", "description": "", "thumbnail": "/files/georgiafacts/2011/2126hilton_exteriora-thumb.jpg", "addressLine1": "2126 Hilton Drive", "addressLine2": "", "city": "Gainesville", "county": "", "state": "GA", "zip": "30501", "kmz": "", "location": "2126 Hilton Drive", "locationid": "330387", "lat": "34.2798680", "lon": "-83.8497689", "url": "/info/330387"},
{"id": "330388", "title": "2122 Hilton Drive", "description": "", "thumbnail": "/files/georgiafacts/2011/2122hiltonb_exteriora-thumb.jpg", "addressLine1": "2122 Hilton Drive", "addressLine2": "", "city": "Gainesville", "county": "", "state": "GA", "zip": "30501", "kmz": "", "location": "Undefined", "locationid": "0", "lat": "34.2801245", "lon": "-83.8499479", "url": "/info/330388"},
{"id": "330395", "title": "2120 Hilton Drive", "description": "", "thumbnail": "/files/georgiafacts/2011/2120hiltonabc_exteriora_edited-thumb.jpg", "addressLine1": "2120 Hilton Drive", "addressLine2": "", "city": "Gainesville", "county": "", "state": "GA", "zip": "30501", "kmz": "", "location": "Undefined", "locationid": "0", "lat": "34.2801906", "lon": "-83.8499941", "url": "/info/330395"},
{"id": "330396", "title": "GRP Properties Green St & GA Hwy 247", "description": "", "thumbnail": "/files/georgiafacts/2011/grpproperties2-thumb.jpg", "addressLine1": "61 Green Street", "addressLine2": "", "city": "Warner Robins", "county": "", "state": "GA", "zip": "31093", "kmz": "", "location": "Undefined", "locationid": "0", "lat": "32.6282160", "lon": "-83.6032160", "url": "/info/330396"},
{"id": "330398", "title": "160 Wansley Drive", "description": "", "thumbnail": "/files/georgiafacts/2011/160wansleydrphoto-thumb.jpg", "addressLine1": "160 Wansley Drive", "addressLine2": "", "city": "Cartersville", "county": "", "state": "GA", "zip": "30121", "kmz": "", "location": "160 Wansley Drive", "locationid": "330398", "lat": "34.1880460", "lon": "-84.7814330", "url": "/info/330398"},
{"id": "330403", "title": "402 Old Mill Road", "description": "", "thumbnail": "/files/georgiafacts/2011/402oldmillrdphoto-thumb.jpg", "addressLine1": "402 Old Mill Road", "addressLine2": "", "city": "Cartersville", "county": "", "state": "GA", "zip": "30120", "kmz": "", "location": "402 Old Mill Road", "locationid": "330403", "lat": "34.1502860", "lon": "-84.8207090", "url": "/info/330403"},
{"id": "330406", "title": "18 Green Street", "description": "", "thumbnail": "/files/georgiafacts/2011/18greenst-thumb.jpg", "addressLine1": "18 Green Street", "addressLine2": "", "city": "Warner Robins", "county": "", "state": "GA", "zip": "31088", "kmz": "", "location": "Undefined", "locationid": "0", "lat": "32.6290637", "lon": "-83.6034159", "url": "/info/330406"},
{"id": "330407", "title": "Wheeler Building", "description": "", "thumbnail": "/files/georgiafacts/2011/1265ntennesseestphoto-thumb.jpg", "addressLine1": "1265 N. Tennessee Street", "addressLine2": "", "city": "Cartersville", "county": "", "state": "GA", "zip": "30120", "kmz": "", "location": "Wheeler Building", "locationid": "330407", "lat": "34.2022380", "lon": "-84.8005570", "url": "/info/330407"},
{"id": "330408", "title": "1014 Old Highway 293", "description": "", "thumbnail": "/files/georgiafacts/2011/10000sf1014oldhwy293aerialphoto-thumb.jpg", "addressLine1": "1014 Old Highway 293", "addressLine2": "", "city": "Cartersville", "county": "", "state": "GA", "zip": "30121", "kmz": "", "location": "1014 Old Highway 293", "locationid": "330408", "lat": "34.0873930", "lon": "-84.7286970", "url": "/info/330408"},
{"id": "330410", "title": "Ramstar, Sardis GA", "description": "", "addressLine1": "626 Charles Perry Ave", "addressLine2": "", "city": "Sardis", "county": "", "state": "GA", "zip": "30456", "kmz": "", "location": "Ramstar, Sardis GA", "locationid": "330410", "lat": "32.9729700", "lon": "-81.7566700", "url": "/info/330410"},
{"id": "330413", "title": "Augusta West", "description": "", "thumbnail": "/files/georgiafacts/2011/augustawestbuilding30900sfjune2011-thumb.bmp", "addressLine1": "1254 Augusta West Parkway", "addressLine2": "", "city": "Augusta", "county": "", "state": "GA", "zip": "30909", "kmz": "", "location": "Undefined", "locationid": "0", "lat": "33.4771530", "lon": "-82.0867640", "url": "/info/330413"},
{"id": "330419", "title": "Arthern Nowell", "description": "", "thumbnail": "/files/georgiafacts/2011/arthernnowell1-thumb.jpg", "addressLine1": "1754 Nowell Drive", "addressLine2": "", "city": "Augusta", "county": "", "state": "GA", "zip": "30901", "kmz": "", "location": "Undefined", "locationid": "0", "lat": "33.4590090", "lon": "-81.9654450", "url": "/info/330419"},
{"id": "330425", "title": "Xpedx", "description": "", "thumbnail": "/files/georgiafacts/2011/buildingsjulyexpedzbuilding-thumb.jpg", "addressLine1": "1427 Marvin Griffin Road", "addressLine2": "", "city": "Augusta", "county": "", "state": "GA", "zip": "30906", "kmz": "", "location": "Xpedx", "locationid": "330425", "lat": "33.3975930", "lon": "-81.9845210", "url": "/info/330425"},
{"id": "330431", "title": "University of Phoenix", "description": "", "thumbnail": "/files/georgiafacts/2011/buildingsjuly2010phoenix-thumb.jpg", "addressLine1": "3150 Perimeter Parkway", "addressLine2": "", "city": "Augusta", "county": "", "state": "GA", "zip": "30909", "kmz": "", "location": "University of Phoenix", "locationid": "330431", "lat": "33.4908690", "lon": "-82.0886960", "url": "/info/330431"},
{"id": "330440", "title": "Book West", "description": "", "thumbnail": "/files/georgiafacts/2011/buildingsjuly2010bookwest-thumb.jpg", "addressLine1": "1340 Augusta West Parkway", "addressLine2": "", "city": "Augusta", "county": "", "state": "GA", "zip": "30909", "kmz": "", "location": "Undefined", "locationid": "0", "lat": "33.4674240", "lon": "-82.0852340", "url": "/info/330440"},
{"id": "330446", "title": "Tobacco Road", "description": "", "thumbnail": "/files/georgiafacts/2011/tobaccoroadbldg-thumb.jpg", "addressLine1": "1885 Tobacco Road", "addressLine2": "", "city": "Augusta", "county": "", "state": "GA", "zip": "30906", "kmz": "", "location": "Undefined", "locationid": "0", "lat": "33.3713860", "lon": "-82.0077560", "url": "/info/330446"},
{"id": "330452", "title": "7625 Southlake Parkway", "description": "", "thumbnail": "/files/georgiafacts/2011/primaryphoto_eflyer-1611-thumb.jpg", "addressLine1": "7625 Southlake Parkway", "addressLine2": "", "city": "Morrow", "county": "", "state": "GA", "zip": "GA", "kmz": "", "location": "7625 Southlake Parkway", "locationid": "330452", "lat": "33.5470970", "lon": "-84.3434590", "url": "/info/330452"},
{"id": "330454", "title": "Interstate", "description": "", "thumbnail": "/files/georgiafacts/2011/interstateparkwaybuilding11600-thumb.jpg", "addressLine1": "1291 Interstate Parkway", "addressLine2": "", "city": "Augusta", "county": "", "state": "GA", "zip": "30909", "kmz": "", "location": "Undefined", "locationid": "0", "lat": "33.4893760", "lon": "-82.0976220", "url": "/info/330454"},
{"id": "330461", "title": "Wrightsboro Road Building", "description": "", "thumbnail": "/files/georgiafacts/2011/wrightsbororoad-thumb.jpg", "addressLine1": "1610 Wrightsboro Road", "addressLine2": "", "city": "Augusta", "county": "", "state": "GA", "zip": "30904", "kmz": "", "location": "Undefined", "locationid": "0", "lat": "33.4638560", "lon": "-81.9995129", "url": "/info/330461"},
{"id": "330469", "title": "Summerville Professional Building", "description": "", "thumbnail": "/files/georgiafacts/2011/summervilleprofessionalbuilding-thumb.jpg", "addressLine1": "2050 Walton Way", "addressLine2": "", "city": "Augusta", "county": "", "state": "GA", "zip": "30904", "kmz": "", "location": "Undefined", "locationid": "0", "lat": "33.4755300", "lon": "-82.0066219", "url": "/info/330469"},
{"id": "330477", "title": "Wells Fargo", "description": "", "thumbnail": "/files/georgiafacts/2011/wachovia-thumb.jpg", "addressLine1": "699 Broad Street", "addressLine2": "", "city": "Augusta", "county": "", "state": "GA", "zip": "30901", "kmz": "", "location": "Undefined", "locationid": "0", "lat": "33.4750320", "lon": "-81.9627820", "url": "/info/330477"},
{"id": "330484", "title": "Greenfield Metal Products", "description": "", "addressLine1": "212 Industrial Drive", "addressLine2": "", "city": "Ellaville", "county": "", "state": "GA", "zip": "318060026", "kmz": "", "location": "Greenfield Metal Products", "locationid": "330484", "lat": "", "lon": "", "url": "/info/330484"},
{"id": "330489", "title": "105 Second Street", "description": "", "thumbnail": "/files/georgiafacts/2011/105secondstphoto-thumb.jpg", "addressLine1": "105 Second Street", "addressLine2": "", "city": "Emerson", "county": "", "state": "GA", "zip": "30137", "kmz": "", "location": "105 Second Street", "locationid": "330489", "lat": "34.1265060", "lon": "-84.7524160", "url": "/info/330489"},
{"id": "330493", "title": "Cherokee Commerce Center, Building 2", "description": "", "thumbnail": "/files/georgiafacts/2011/cccbuilding-thumb.jpg", "addressLine1": "Northpoint Pkwy, Acworth, GA", "addressLine2": "", "city": "Acworth", "county": "", "state": "GA", "zip": "30102", "kmz": "", "location": "Undefined", "locationid": "0", "lat": "", "lon": "", "url": "/info/330493"}], "count":[{"id": "200"}], "instances":[{"id": "0"}], "ongoing":[{"id": "0"}], "ua":[{"id": "0"}], "parentTitle":[{"id": ""}], "parentLink":[{"id": "/info/0"}],"itemType": [{"id": 330085, "typeID": 16444},{"id": 330087, "typeID": 17640},{"id": 330098, "typeID": 17600},{"id": 330101, "typeID": 16420},{"id": 330102, "typeID": 16420},{"id": 330103, "typeID": 16444},{"id": 330113, "typeID": 17620},{"id": 330115, "typeID": 16435},{"id": 330116, "typeID": 16435},{"id": 330117, "typeID": 16435},{"id": 330118, "typeID": 17600},{"id": 330120, "typeID": 17600},{"id": 330121, "typeID": 16435},{"id": 330124, "typeID": 16616},{"id": 330128, "typeID": 17600},{"id": 330129, "typeID": 17600},{"id": 330130, "typeID": 17610},{"id": 330131, "typeID": 16435},{"id": 330215, "typeID": 17625},{"id": 330216, "typeID": 16435},{"id": 330222, "typeID": 16435},{"id": 330223, "typeID": 17620},{"id": 330227, "typeID": 16435},{"id": 330228, "typeID": 16616},{"id": 330230, "typeID": 17600},{"id": 330235, "typeID": 16616},{"id": 330239, "typeID": 17600},{"id": 330242, "typeID": 16435},{"id": 330243, "typeID": 16435},{"id": 330253, "typeID": 17600},{"id": 330255, "typeID": 16435},{"id": 330261, "typeID": 17600},{"id": 330264, "typeID": 16444},{"id": 330273, "typeID": 17640},{"id": 330279, "typeID": 17600},{"id": 330282, "typeID": 17600},{"id": 330283, "typeID": 17600},{"id": 330288, "typeID": 16435},{"id": 330290, "typeID": 16435},{"id": 330294, "typeID": 16435},{"id": 330314, "typeID": 16435},{"id": 330316, "typeID": 16435},{"id": 330318, "typeID": 16435},{"id": 330320, "typeID": 16435},{"id": 330330, "typeID": 16444},{"id": 330337, "typeID": 16420},{"id": 330339, "typeID": 16420},{"id": 330342, "typeID": 17620},{"id": 330351, "typeID": 17600},{"id": 330354, "typeID": 16616},{"id": 330355, "typeID": 17650},{"id": 330357, "typeID": 17600},{"id": 330358, "typeID": 17600},{"id": 330360, "typeID": 16435},{"id": 330363, "typeID": 17600},{"id": 330364, "typeID": 17600},{"id": 330365, "typeID": 16420},{"id": 330371, "typeID": 17620},{"id": 330379, "typeID": 16616},{"id": 330386, "typeID": 17660},{"id": 330387, "typeID": 16435},{"id": 330388, "typeID": 16420},{"id": 330395, "typeID": 16435},{"id": 330406, "typeID": 16435},{"id": 330407, "typeID": 17620},{"id": 330410, "typeID": 16444},{"id": 330413, "typeID": 16620},{"id": 330419, "typeID": 16435},{"id": 330425, "typeID": 17600},{"id": 330440, "typeID": 16620},{"id": 330446, "typeID": 16435},{"id": 330452, "typeID": 16435},{"id": 330454, "typeID": 16420},{"id": 330461, "typeID": 16435},{"id": 330469, "typeID": 16420},{"id": 330477, "typeID": 16420},{"id": 330484, "typeID": 17600},{"id": 330608, "typeID": 17600},{"id": 330614, "typeID": 17600},{"id": 330615, "typeID": 17600},{"id": 330621, "typeID": 16620},{"id": 330647, "typeID": 17600},{"id": 330648, "typeID": 16420},{"id": 330658, "typeID": 16435},{"id": 330661, "typeID": 16435},{"id": 330662, "typeID": 16435},{"id": 330664, "typeID": 16435},{"id": 330666, "typeID": 16435},{"id": 330668, "typeID": 16435},{"id": 330669, "typeID": 16435},{"id": 330670, "typeID": 16435},{"id": 330674, "typeID": 16435},{"id": 330675, "typeID": 16435},{"id": 330679, "typeID": 16435},{"id": 330681, "typeID": 16435},{"id": 330683, "typeID": 16616},{"id": 330686, "typeID": 17600},{"id": 330687, "typeID": 16435},{"id": 330688, "typeID": 17600},{"id": 330690, "typeID": 16435},{"id": 330691, "typeID": 17600},{"id": 330692, "typeID": 16435},{"id": 330696, "typeID": 16435},{"id": 330700, "typeID": 17620},{"id": 330701, "typeID": 17600},{"id": 330710, "typeID": 17600},{"id": 330728, "typeID": 16435},{"id": 330734, "typeID": 17620},{"id": 330740, "typeID": 16444},{"id": 330743, "typeID": 16444},{"id": 330745, "typeID": 16435},{"id": 330749, "typeID": 16427},{"id": 330773, "typeID": 17640},{"id": 330784, "typeID": 17620},{"id": 330786, "typeID": 16444},{"id": 330799, "typeID": 16420},{"id": 330812, "typeID": 17600}]}
    